"Name","Longitude","Latitude"
"Nakara Oval","130.876241651271","-12.3702390678639"
"Jingili Oval","130.874628207377","-12.3884940935089"
"Malak Oval","130.902790843458","-12.3945056736367"
"Fannie Bay Oval","130.840232347998","-12.4220274356016"
"Gardens Oval Two","130.833300522595","-12.4481095849661"
"Chrisp Street Oval","130.8576665769","-12.384521782161"
